[
  {
    "ID": 1,
    "Name": "Trinh",
    "Address": "6 vo van kiet, p nguyen thai binh, q1",
    "Location": "HCMC",
    "LocationSub": "Quận 1"
  },
  {
    "ID": 2,
    "Name": "nguyen",
    "Address": "123 nguyen van cong, quan 7",
    "Location": "Hanoi",
    "LocationSub": "Thanh Xuân"
  },
  {
    "ID": 3,
    "Name": "xin",
    "Address": "7 vo van kiet",
    "Location": "HCMC",
    "LocationSub": "Quận 2"
  },
  {
    "ID": 4,
    "Name": "chao",
    "Address": "8 vo van kiet",
    "Location": "Vinh",
    "LocationSub": "Càng Long"
  },
  {
    "ID": 5,
    "Name": "chao",
    "Address": "9 vo van kiet",
    "Location": "HCMC",
    "LocationSub": "Quận 1"
  },
  {
    "ID": 6,
    "Name": "chao",
    "Address": "10 vo van kiet",
    "Location": "HCMC",
    "LocationSub": "Quận 2"
  },
  {
    "ID": 7,
    "Name": "chao",
    "Address": "11 vo van kiet",
    "Location": "HCMC",
    "LocationSub": "Quận 3"
  },
  {
    "ID": 8,
    "Name": "chao",
    "Address": "12 vo van kiet",
    "Location": "HCMC",
    "LocationSub": "Quận 4"
  },
  {
    "ID": 9,
    "Name": "chao",
    "Address": "13 vo van kiet",
    "Location": "HCMC",
    "LocationSub": "Quận 5"
  },
  {
    "ID": 10,
    "Name": "chao",
    "Address": "14 vo van kiet",
    "Location": "HCMC",
    "LocationSub": "Quận 1"
  },
  {
    "ID": 11,
    "Name": "chao",
    "Address": "15 vo van kiet",
    "Location": "HCMC",
    "LocationSub": "Quận 2"
  },
  {
    "ID": 12,
    "Name": "chao",
    "Address": "16 vo van kiet",
    "Location": "HCMC",
    "LocationSub": "Quận 3"
  },
  {
    "ID": 13,
    "Name": "chao",
    "Address": "17 vo van kiet",
    "Location": "HCMC",
    "LocationSub": "Quận 4"
  },
  {
    "ID": 14,
    "Name": "chao",
    "Address": "18 vo van kiet",
    "Location": "HCMC",
    "LocationSub": "Quận 5"
  },
  {
    "ID": 15,
    "Name": "chao",
    "Address": "19 vo van kiet",
    "Location": "Hanoi",
    "LocationSub": "Thanh Xuân"
  },
  {
    "ID": 16,
    "Name": "chao",
    "Address": "20 vo van kiet",
    "Location": "Hanoi",
    "LocationSub": "Thanh Xuân"
  },
  {
    "ID": 17,
    "Name": "chao",
    "Address": "21 vo van kiet",
    "Location": "Hanoi",
    "LocationSub": "Hoàn Kiếm"
  },
  {
    "ID": 18,
    "Name": "chao",
    "Address": "22 vo van kiet",
    "Location": "Hanoi",
    "LocationSub": "Thanh Xuân"
  },
  {
    "ID": 19,
    "Name": "chao",
    "Address": "23 vo van kiet",
    "Location": "Hanoi",
    "LocationSub": "Thanh Xuân"
  }
]
